City_ID,City,Country,Max Temp,Current Description,Lat,Lng,Hotel Name
2,Victoria,HK,74.25,clear sky,22.2855,114.1577,Mini Central
3,Muros,ES,60.84,broken clouds,42.7762,-9.0603,Apartment Av. Castelao
4,Saint-Philippe,RE,67.59,scattered clouds,-21.3585,55.7679,Le four à pain
5,Hermanus,ZA,69.13,overcast clouds,-34.4187,19.2345,Misty Waves Boutique Hotel
7,La Rioja,ES,53.38,overcast clouds,42.25,-2.5,Casa Concejos
9,Buraydah,SA,72.05,clear sky,26.326,43.975,Mövenpick Qassim
10,Yellowknife,CA,52.32,broken clouds,62.456,-114.3525,The Explorer Hotel
11,Viedma,AR,52.97,clear sky,-40.8135,-62.9967,Hotel Cristal
12,Vaini,TO,78.96,scattered clouds,-21.2,-175.2,Keleti Beach Resort
13,Marzuq,YE,69.58,clear sky,14.4,46.4667,حيد القفلة
15,Lasa,IT,54.48,broken clouds,46.6166,10.7002,Pension Feldgärtenhof
18,Lagoa,PT,69.57,broken clouds,39.05,-27.9833,Casa Das Faias
19,Souillac,MU,70.18,broken clouds,-20.5167,57.5167,Shanti Maurice Resort & Spa
23,Richards Bay,ZA,70.88,overcast clouds,-28.783,32.0377,BON Hotel Waterfront Richards Bay
25,Rikitea,PF,72.3,few clouds,-23.1203,-134.9692,People ThankYou
26,Thompson,CA,66.36,few clouds,55.7435,-97.8558,Burntwood Hotel
27,Vila Velha,BR,78.75,overcast clouds,-20.3297,-40.2925,Hotel Vitória Palace
28,Fayetteville,US,67.59,broken clouds,35.0527,-78.8784,American Eagle Inn
29,Port Alfred,ZA,67.17,overcast clouds,-33.5906,26.891,The Halyards Hotel
31,Xai-Xai,MZ,71.17,clear sky,-25.0519,33.6442,Complexo da Familia
32,Busselton,AU,53.29,overcast clouds,-33.65,115.3333,Observatory Guest House
35,Mar Del Plata,AR,53.1,clear sky,-38.0023,-57.5575,Gran Hotel Mar del Plata
37,Bengkulu,ID,76.78,overcast clouds,-3.8004,102.2655,Grage Hotel Bengkulu
38,Sioux Lookout,CA,55.47,broken clouds,50.1001,-91.917,Knobby's Fly-In Camps
39,Atuona,PF,76.93,few clouds,-9.8,-139.0333,Villa Enata
42,Geraldton,AU,52.21,overcast clouds,-28.7667,114.6,Broadwater Mariner Resort
43,Truro,GB,51.08,broken clouds,50.2653,-5.0544,Mannings Hotel
45,Avarua,CK,78.85,broken clouds,-21.2078,-159.775,Paradise Inn
48,Morehead,US,64.99,clear sky,37.2711,-87.1764,CCI Express Inn
54,Port Hardy,CA,57.38,scattered clouds,50.6996,-127.4199,Airport Inn-Port Hardy
55,New Norfolk,AU,59.92,broken clouds,-42.7826,147.0587,The Shingles Riverside Cottages
56,Arraial Do Cabo,BR,70.47,overcast clouds,-22.9661,-42.0278,Pousada Porto Praia
57,Albany,US,50.23,scattered clouds,42.6001,-73.9662,
58,Guerrero Negro,MX,72.88,clear sky,27.9769,-114.0611,"Casa Laguna, Bed & Breakfast"
60,East London,ZA,67.6,overcast clouds,-33.0153,27.9116,Tu Casa
62,Tomigusuku,JP,74.97,scattered clouds,26.185,127.675,Hotel Gran View Okinawa
69,Tautira,PF,75.74,light rain,-17.7333,-149.15,Pension Oaoa
71,Constitucion,CL,51.26,clear sky,-35.3333,-72.4167,Hotel Boutique Las Azucenas
73,Telde,ES,70.02,few clouds,27.9924,-15.4192,Hotel Rural Cortijo San Ignacio Golf
76,Verdun,FR,55.42,overcast clouds,49.25,5.3333,Logis Hôtel le Relais
79,Taltal,CL,59.88,few clouds,-25.4,-70.4833,Residencial Karime
81,Bredasdorp,ZA,65.95,overcast clouds,-34.5322,20.0403,Bredasdorp Country Manor
82,Beloha,MG,65.23,scattered clouds,-25.1667,45.05,
84,Morondava,MG,75.43,few clouds,-20.2833,44.2833,La Case Bambou
86,Marsabit,KE,62.58,clear sky,2.3284,37.9899,Chicho Hotel
87,Bambous Virieux,MU,70.05,broken clouds,-20.3428,57.7575,Casa Tia Villa
89,Te Anau,NZ,56.88,broken clouds,-45.4167,167.7167,Kingsgate Hotel Te Anau
92,Avera,US,69.85,scattered clouds,33.194,-82.5271,
94,San Cristobal,VE,75.38,overcast clouds,7.7669,-72.225,Pirineos
95,Lompoc,US,77.14,overcast clouds,34.6391,-120.4579,"Holiday Inn Express Lompoc, an IHG Hotel"
96,Port Hedland,AU,75.25,scattered clouds,-20.3167,118.5667,The Esplanade Hotel
99,Flinders,AU,60.26,overcast clouds,-34.5833,150.8552,Shellharbour Resort & Conference Centre
100,Ponta Do Sol,PT,72.12,scattered clouds,32.6667,-17.1,Hotel do Campo
101,Broome,US,52.18,clear sky,42.2506,-75.833,Chenango Valley State Park
102,Lumphat,KH,73.17,overcast clouds,13.4878,106.9816,"Wing Seng Narong Agent, And Printing House"
103,Yangambi,CD,68.31,light rain,0.8102,24.4336,
104,Hasaki,JP,75.22,overcast clouds,35.7333,140.8333,Inubosaki Kanko Hotel
108,Valdivia,CL,57.29,clear sky,-39.8142,-73.2459,Hostal Entre Rios
111,Hualmay,PE,62.8,scattered clouds,-11.0964,-77.6139,Hotel Villa Kitzia Huacho
112,Sao Filipe,CV,78.87,broken clouds,14.8961,-24.4956,Hotel Xaguate
116,Xichang,CN,51.84,overcast clouds,27.8964,102.2634,Xichang ibis Hotel
118,Kodiak,US,58.51,clear sky,57.79,-152.4072,Best Western Kodiak Inn
119,Fayaoue,NC,75.74,overcast clouds,-20.65,166.5333,Chez Dydyce Guesthouse
121,Castro,BR,57.25,moderate rain,-24.7911,-50.0119,CHACARA BAILLY
123,Hamilton,US,65.84,clear sky,39.1834,-84.5333,Six Acres Bed & Breakfast
125,Kiama,AU,62.01,overcast clouds,-34.6833,150.8667,The Sebel Kiama Harbourside
126,Santa Maria,BR,52.9,light rain,-29.6842,-53.8069,Hotel Morotin
127,Faanui,PF,78.24,scattered clouds,-16.4833,-151.75,Bora-Bora Pearl Beach Resort & Spa
128,Inhambane,MZ,73.89,scattered clouds,-23.865,35.3833,Oceano
131,Codrington,AU,62.46,overcast clouds,-38.2667,141.9667,Codrington Gardens Bed And Breakfast
135,Puerto Baquerizo Moreno,EC,67.05,overcast clouds,-0.9,-89.6,Hotel los Algarrobos
136,Poum,NC,78.04,broken clouds,-20.2333,164.0167,
138,Mae Ramat,TH,75.79,overcast clouds,16.984,98.5166,บ้านโฮ่งโฮมสเตย์ แม่ระมาด ตาก
139,Namibe,AO,66.52,broken clouds,-15.1961,12.1522,Hotel Chik Chik Namibe
140,North Bend,US,63.91,overcast clouds,43.4065,-124.2243,Red Lion Hotel Coos Bay
142,Abha,SA,60.62,clear sky,18.2164,42.5053,Abha Hotel
143,Manono,CD,70.54,scattered clouds,-7.3,27.4167,Hotel hewa bora
144,Minab,IR,71.92,clear sky,27.1467,57.0801,Bam campground
145,Cape Town,ZA,70.12,clear sky,-33.9258,18.4232,"Radisson Blu Hotel Waterfront, Cape Town"
148,Carutapera,BR,78.66,few clouds,-1.195,-46.02,Lidera
149,Nioro,GM,76.91,overcast clouds,13.35,-15.75,
152,Cidreira,BR,58.44,moderate rain,-30.1811,-50.2056,Hotel Castelo
153,Los Llanos De Aridane,ES,65.95,clear sky,28.6585,-17.9182,Valle Aridane
155,Cranbrook,CA,69.64,smoke,49.4999,-115.7688,Almo Court Motel
156,Nurota,UZ,51.06,clear sky,40.5614,65.6886,Guest House Ruslan Nurata & Tours
157,Port Lincoln,AU,64.24,overcast clouds,-34.7333,135.8667,Port Lincoln Hotel
160,Bien Hoa,VN,76.98,overcast clouds,10.95,106.8167,OYO 991 Duy Anh Hotel
161,Touros,BR,77.9,few clouds,-5.1989,-35.4608,INN NEW HORIZON
163,Comodoro Rivadavia,AR,64.26,clear sky,-45.8667,-67.5,Austral Hotel
166,Hobart,AU,60.26,broken clouds,-42.8794,147.3294,St Ives Hobart Accommodation Tasmania
167,Lata,PT,64.08,overcast clouds,40.1629,-8.3327,Casa Maquia
170,Puri,IN,77.52,broken clouds,19.8,85.85,OYO 1577 Hotel Shree Hari Grand
171,Kaitangata,NZ,52.92,overcast clouds,-46.2817,169.8464,Kaitangata Motor Camp
172,Pitimbu,BR,79.39,few clouds,-7.4706,-34.8086,Reserva do Abiaí
173,Puerto Ayora,EC,66.54,broken clouds,-0.7393,-90.3518,Finch Bay Galapagos Hotel
174,Gawler,AU,67.24,overcast clouds,-34.6,138.7333,Eagle Foundry Bed & Breakfast
178,Samur,RU,64.83,scattered clouds,41.8253,48.486000000000004,Samur
183,Kaeo,NZ,69.33,overcast clouds,-35.1,173.7833,Bushido Lodge
185,Bud,US,69.78,clear sky,39.446999999999996,-86.1758,Ted McQuinn Trust
186,Maldonado,UY,51.22,few clouds,-34.6667,-54.9167,La Cimarrona
187,Malakal,SS,69.08,moderate rain,9.5334,31.6605,Nile Palace Hotel
189,Natal,BR,77.65,scattered clouds,-5.795,-35.2094,Villa Park Hotel | Natal
192,Bowen,AU,77.25,overcast clouds,-20.0167,148.2333,Castle Motor Lodge Motel
193,Carnarvon,AU,63.9,overcast clouds,-24.8667,113.6333,Hospitality Carnarvon
194,Goderich,CA,51.91,few clouds,43.7501,-81.7165,Harmony Inn
195,Evansville,US,73.22,clear sky,37.9748,-87.5558,Le Merigot Hotel
197,Ribeira Grande,PT,69.78,few clouds,38.5167,-28.7,Quinta da Meia Eira
198,Fort Nelson,CA,54.99,broken clouds,58.8053,-122.7002,The Fort Nelson Hotel
200,Port Elizabeth,ZA,69.31,clear sky,-33.918,25.5701,39 On Nile Guest House
202,Prince Rupert,CA,55.49,overcast clouds,54.3161,-130.3201,Crest Hotel
203,Zaragoza,ES,67.01,few clouds,41.6561,-0.8773,Hotel Goya
204,Rochester,US,50.36,scattered clouds,43.1548,-77.6156,Hyatt Regency Rochester
208,Mchinji,MW,64.45,clear sky,-13.7984,32.8802,Kayesa Inn
209,Salalah,OM,73.49,clear sky,17.0151,54.0924,"HAMDAN PLAZA HOTEL SALALAH, an HTG Hotel"
210,Hami,CN,51.84,scattered clouds,42.8,93.45,Laoyutang Resort
211,Kinna,SE,52.45,overcast clouds,57.5073,12.6946,Hanatorps Camping
212,Margate,GB,53.69,clear sky,51.3813,1.3862,Premier Inn Margate hotel
214,Pizarro,CO,76.6,overcast clouds,4.9533,-77.366,Hotel Limonar
218,Axim,GH,76.05,overcast clouds,4.8699,-2.2405,Axim Beach Resort And Spa
221,Byron Bay,AU,65.71,overcast clouds,-28.65,153.6167,Backpackers Inn
222,Westport,US,62.37,broken clouds,41.1415,-73.3579,The Westport Inn
223,Lima,PE,65.89,scattered clouds,-12.0432,-77.0282,Hotel Kamana
224,Yenagoa,NG,75.0,moderate rain,4.9247,6.2642,Aridolf Resort Wellness and Spa
225,Moratuwa,LK,77.02,scattered clouds,6.773,79.8816,Sa Mansion By Yoho
227,Yangjiang,CN,66.49,clear sky,21.85,111.9667,HUALUXE Yangjiang City Center
229,Yokadouma,CM,66.43,broken clouds,3.5167,15.05,Hôtel De Ville De Yokadouma
232,Bodrum,TR,69.28,clear sky,37.0383,27.4292,The Marmara Bodrum
236,Vao,NC,72.46,light rain,-22.6667,167.4833,Hotel Kou-Bugny
237,Weiser,US,79.0,clear sky,44.251000000000005,-116.9693,The Colonial Motel
238,Broken Hill,AU,66.79,overcast clouds,-31.95,141.4333,Royal Exchange Hotel
239,Siuri,IN,75.99,broken clouds,23.9167,87.5333,Sarada Hotel & Dipa Restaurant
241,Manado,ID,79.57,few clouds,1.4869999999999999,124.8455,Aryaduta Hotel
242,Ahipara,NZ,66.2,broken clouds,-35.1667,173.1667,Ahipara Holiday Park
247,Kokstad,ZA,65.43,overcast clouds,-30.5472,29.4241,Majestic Bed and Breakfast
248,Bethel,US,59.56,clear sky,41.3712,-73.414,Courtyard by Marriott Danbury
249,Nelson Bay,AU,66.11,overcast clouds,-32.7167,152.15,Mantra Nelson Bay
251,Kantunilkin,MX,75.63,overcast clouds,21.0917,-87.45,Posada Paraiso
253,Ratnagiri,IN,76.68,overcast clouds,16.9833,73.3,Hotel Landmark
254,Southbridge,US,56.39,broken clouds,42.0751,-72.0334,Southbridge Hotel & Conference Center
255,Teknaf,BD,77.63,overcast clouds,20.8624,92.3058,Forestry Guesthouse
257,Kouroussa,GN,73.02,moderate rain,10.65,-9.8833,Hotel Tando Plus
259,Qingquan,CN,55.94,broken clouds,30.4511,115.2559,Caiyuan Hotel
260,Nachingwea,TZ,66.02,clear sky,-10.3833,38.7667,Makoga lodge
268,Coquimbo,CL,55.13,few clouds,-29.9533,-71.3436,Hotel San Juan
269,Tottori,JP,59.07,broken clouds,35.5,134.2333,Hotel Monarque Tottori
272,Bhatkal,IN,75.99,moderate rain,13.9667,74.5667,Nilawar Palace Lodge
273,Takoradi,GH,76.55,scattered clouds,4.8845,-1.7554,Raybow International Hotel
274,Acajutla,SV,76.55,overcast clouds,13.5928,-89.8275,CASA DE LA PERRA
275,Otane,NZ,65.01,light rain,-39.8833,176.6333,Ludlow Farmstay
276,Sirjan,IR,59.09,clear sky,29.451999999999998,55.6814,MAPNA Building
277,Artyom,AZ,64.54,clear sky,40.4723,50.333,Yusif 10 A
282,Soe,ID,79.11,overcast clouds,-9.8607,124.28399999999999,Dena Hotel
284,Bambanglipuro,ID,78.94,overcast clouds,-7.95,110.2833,Puri Brata
285,Shenzhen,CN,72.21,clear sky,22.5455,114.0683,Grand Skylight
287,Ankang,CN,50.0,clear sky,32.68,109.0172,安琪酒店
288,Gorontalo,ID,79.81,overcast clouds,0.5412,123.0595,Maqna Hotel by Prasanthi
292,Esperance,AU,51.64,overcast clouds,-33.8667,121.9,Hospitality Esperance
295,Somanda,TZ,70.56,broken clouds,-3.3667,33.95,
296,Erzin,TR,67.19,clear sky,36.9559,36.2,Artemis Otel
299,General Roca,AR,65.44,broken clouds,-39.0333,-67.5833,Hotel El Recreo
301,Ashtabula,US,56.84,clear sky,41.7001,-80.7665,DFC Mobile Home Park & Sales
304,Waw,SS,70.43,light rain,7.7029,27.9953,Universal Gab Hotel
306,Tarija,BO,58.91,clear sky,-21.5355,-64.7296,Hostal Granny
310,Banda Aceh,ID,77.52,overcast clouds,5.5577,95.3222,OYO 884 Rumoh PMI Hotel
311,Menongue,AO,67.26,broken clouds,-14.6585,17.691,Ritz Lauca
312,Wanaka,NZ,53.37,overcast clouds,-44.7,169.15,Wanaka Homestead Lodge and Cottages
313,Ulladulla,AU,59.54,broken clouds,-35.35,150.4667,Sandpiper Motel
314,Mayo,US,62.55,clear sky,38.8876,-76.5119,Resorts Resource Group International
315,Ambulu,ID,77.65,overcast clouds,-8.345,113.6058,Hotel Ambulu Jember
316,Saint-Joseph,RE,66.58,few clouds,-21.3667,55.6167,"""Plantation Bed and Breakfast"
318,Abu Samrah,SY,66.49,clear sky,35.3029,37.1841,
319,Yanam,IN,75.69,light rain,16.7333,82.2167,The Regency Hotel
322,Pascagoula,US,78.85,clear sky,30.3658,-88.5561,Regency Inn
323,Mumford,GH,76.62,light rain,5.2618,-0.759,Peace Guest House
325,Barcelona,ES,68.77,few clouds,41.3888,2.1590000000000003,Axel Hotel Barcelona
326,Fortuna,US,63.93,clear sky,40.5982,-124.1573,Super 8 by Wyndham Fortuna
327,Tiruppuvanam,IN,77.38,mist,9.8333,78.2667,Velammal Lodge
328,Xiaoweizhai,CN,53.24,overcast clouds,26.1903,107.5125,Karst Youth Hostel
330,Mandiana,GN,73.18,light rain,10.6333,-8.6833,Centre d'accueil de Mandiana
331,Urucara,BR,74.1,overcast clouds,-2.5364,-57.76,Pousada Maria Bonita
332,Zeliezovce,SK,54.79,overcast clouds,48.0508,18.6542,Pension Eden
333,Sonthofen,DE,52.88,broken clouds,47.5167,10.2833,AllgäuSternHotel - Sonthofen
335,Tayoltita,MX,75.34,clear sky,24.0833,-105.9333,Hotel La Mina Tayoltita
336,Ngunguru,NZ,62.8,broken clouds,-35.6167,174.5,Pacific Rendezvous Motel Resort
337,Portland,US,79.65,broken clouds,45.5234,-122.6762,Embassy Suites by Hilton Portland Downtown
339,Cururupu,BR,77.5,scattered clouds,-1.8283,-44.8683,POUSADA TRAVÉS'CIA
342,Baillif,GP,78.3,overcast clouds,16.0202,-61.7463,Hôtel Saint-Georges
345,Launceston,AU,59.61,scattered clouds,-41.45,147.1667,Hotel Grand Chancellor Launceston
346,Ruteng,ID,70.23,overcast clouds,-8.6136,120.4721,Hotel FX 72
348,Reconquista,AR,53.01,few clouds,-29.15,-59.65,Grand Hotel
349,Arraias,BR,78.42,few clouds,-12.9288,-46.9437,Hotel Japão
352,Harper,LR,76.17,light rain,4.375,-7.7169,Screensaver
353,Yulara,AU,79.57,broken clouds,-25.2406,130.9889,Desert Gardens Hotel - Ayers Rock Resort
354,Viseu,PT,59.74,broken clouds,40.661,-7.9097,Montebelo Viseu Congress Hotel
355,Mackay,AU,72.68,broken clouds,-21.15,149.2,International Lodge Motel
356,Corinto,GR,63.9,scattered clouds,37.9407,22.9573,Ephira Hotel
360,Kalmunai,LK,77.0,overcast clouds,7.4167,81.8167,VS Villa
362,Xiashi,CN,59.0,overcast clouds,30.5363,120.6864,皮都锦江大酒店
363,Alexandria,EG,72.68,clear sky,31.2156,29.9553,Royal Crown Hotel
364,Yeppoon,AU,71.38,overcast clouds,-23.1333,150.7333,Villa Mar Colina
369,Swellendam,ZA,73.38,overcast clouds,-34.0226,20.4417,De Kloof Heritage Estate boutique Hotel & SPA
373,Antofagasta,CL,58.28,few clouds,-23.65,-70.4,"Holiday Inn Express Antofagasta, an IHG Hotel"
374,Along,IN,70.07,overcast clouds,28.1667,94.7667,Hotel West
375,Bembereke,BJ,71.08,few clouds,10.2283,2.6634,Hotel Bio Guera
376,Baturaja,ID,74.79,overcast clouds,-4.1333,104.1667,"HOTEL Sekar Sunja, Baturaja Timur, Ogan Komering Ulu"
377,Paramonga,PE,62.19,few clouds,-10.6667,-77.8333,"Av Douglas Stephen, Los Chalets Paramonga, Lima, Perú"
378,Ada,US,76.35,clear sky,43.4166,-116.1262,
379,Kijang,KR,55.13,clear sky,35.2442,129.2139,Samyang Beach Villa
380,Kuching,MY,75.42,mist,1.55,110.3333,Hilton Kuching
383,Port Blair,IN,75.24,mist,11.6667,92.75,"Welcomhotel By ITC Hotels, Bay Island, Port Blair"
384,Pareora,NZ,62.19,broken clouds,-44.4871,171.2132,"Kingsdown Suite, Timaru"
387,Abashiri,JP,57.49,broken clouds,44.0213,144.2697,Tōyoko Inn Hokkaidō Okhotsk Abashiri Ekimae
389,La Sierra,CO,57.58,broken clouds,2.1784,-76.7626,HOTEL BALCON DEL NORTE
390,Ha Tinh,VN,69.33,overcast clouds,18.3333,105.9,Phú Quý
392,Sadovoye,RU,55.35,broken clouds,47.7764,44.5089,Putnik
393,Mandera,KE,77.32,scattered clouds,3.9366,41.867,Red Sea Resort & Suites Mandera County
398,Manggar,ID,77.34,moderate rain,-2.8833,108.2667,Guest Hotel
399,Khash,IR,56.01,clear sky,28.2211,61.2158,خوابگاه آبجی محدثه
401,Naze,JP,70.72,overcast clouds,28.3667,129.4833,Shishime Hotel
403,Saldanha,ZA,59.05,overcast clouds,-33.0117,17.9442,Blue Bay Lodge
404,Caravelas,BR,75.47,scattered clouds,-17.7125,-39.2481,Pousada dos Navegantes
405,Yatou,CN,54.66,clear sky,37.15,122.3833,GreenTree Hotel Rongcheng Bus Station
409,Apac,UG,64.02,scattered clouds,1.9756,32.5386,Double Duez Apac
410,Amapa,BR,77.88,broken clouds,1.0,-52.0,
411,Colonia,DE,52.59,clear sky,50.9333,6.95,Mauritius Hotel & Therme
412,Doka,SD,71.87,clear sky,13.5167,35.7667,منصور عثمان
418,Tapes,BR,58.12,overcast clouds,-30.6733,-51.3958,Cabanas Camping Union
419,Kloulklubed,PW,79.3,overcast clouds,7.0419,134.2556,Storyboard Beach Resort
420,Vila Franca Do Campo,PT,74.19,scattered clouds,37.7167,-25.4333,Pestana Bahia Praia
421,Mangan,IN,70.77,light rain,27.5167,88.5333,Hotel Mout View
424,Hobyo,SO,76.86,scattered clouds,5.3505,48.5268,Halane Hotel and Restaurent
426,Salamiyah,SY,64.11,clear sky,35.0113,37.0532,Gondolas Forum grandchildren and grandparents
428,Lodja,CD,66.99,light rain,-3.4833,23.4333,
430,Northam,GB,52.61,broken clouds,51.0333,-4.2167,Durrant House Hotel
431,Cabedelo,BR,79.47,scattered clouds,-6.9811,-34.8339,Pousada Camboinha
432,Tabou,CI,76.35,light rain,4.423,-7.3528,hotêl doufoulougou
434,Sinnamary,GF,79.7,light rain,5.3833,-52.95,ALETHEIA Appartement Sinnamary
436,Mogadishu,SO,76.89,clear sky,2.0371,45.3438,Hotel Juba
437,Dubuque,US,66.79,clear sky,42.4833,-90.8668,American Inn and Suites
439,Fort Saint James,CA,56.48,clear sky,54.4333,-124.25,The View Hotel
441,Springdale,US,73.51,broken clouds,36.1867,-94.1288,Springdale Inn
444,Shimoda,JP,71.96,overcast clouds,34.6667,138.95,Shimoda Tokyu Hotel
445,Bonthe,SL,76.87,moderate rain,7.5264,-12.505,Bonthe Holiday Village
446,Goksun,TR,50.14,clear sky,38.021,36.4973,Prof. Dr. Mehmet Saglam Ogretmenevi
447,Porto Belo,BR,60.75,moderate rain,-27.1578,-48.5531,Costa Verde Beach Hotel
449,Khani,GE,51.37,overcast clouds,41.9563,42.9566,კურორტი ზეკარი/Resort Zekari
450,Puerto Rondon,CO,78.39,broken clouds,6.2805,-71.1,Urbanización Santa Clara
454,Airai,TL,68.7,overcast clouds,-8.9266,125.4092,
455,San Quintin,MX,70.02,scattered clouds,30.4833,-115.95,Don Eddie's Sport Fishing Center
457,Nouadhibou,MR,75.18,broken clouds,20.930999999999997,-17.0347,El Medina
458,Zambezi,ZM,64.71,scattered clouds,-13.5432,23.1047,Royal Kutachika Lodge
460,Sao Joao Da Barra,BR,77.09,scattered clouds,-21.6403,-41.0511,Pousada Porto De Canoas
461,Papara,BR,79.2,few clouds,-3.9839,-38.7273,CAMPOS MARANGUAPE
464,Mimoso Do Sul,BR,72.21,scattered clouds,-21.0642,-41.3664,Mimoso Plaza Hotel
465,Moose Factory,CA,50.0,broken clouds,51.2585,-80.6094,Moosonee Lilypad
466,Mount Gambier,AU,60.51,overcast clouds,-37.8333,140.7667,The Commodore
468,Bako,ET,62.82,broken clouds,5.7833,36.5667,Goh Hotel
470,Sungairaya,ID,76.93,light rain,0.7,108.9,Rumah Kuku Moimoi Shelly
472,Altamont,US,78.64,clear sky,42.2068,-121.7372,Microtel Inn & Suites by Wyndham Klamath Falls
473,Catia La Mar,VE,79.59,overcast clouds,10.6038,-67.0303,HOTEL PLAYA GRANDE CARIBE
474,Beira,MZ,77.09,scattered clouds,-19.8436,34.8389,Beira Terrace Hotel
475,Owando,CG,70.61,overcast clouds,-0.4819,15.8999,Exaunel Hotel Owando
478,Mahebourg,MU,70.09,broken clouds,-20.4081,57.7,Shandrani Beachcomber Resort & Spa
479,Santa Isabel,BR,67.3,overcast clouds,-23.3156,-46.2214,Chácara Sombra do Altíssimo
480,Saint-Paul,RE,68.11,scattered clouds,-21.0096,55.2707,Boucan Canot
481,Gweru,ZW,62.04,clear sky,-19.45,29.8167,Suskwe Lodges
482,Sabha,LY,72.82,few clouds,27.0377,14.4283,محطة ام الارانب -سبها مواصلات
486,Flin Flon,CA,69.64,few clouds,54.7682,-101.865,Victoria Inn Flin Flon
489,Gambo,CF,68.56,moderate rain,4.6482,22.2633,
490,Chicama,PE,59.54,scattered clouds,-7.8447,-79.1469,Balihai Bungalows
491,Maceio,BR,78.24,scattered clouds,-9.6658,-35.7353,Hotel Ponta Verde Maceió
492,Waycross,US,79.05,clear sky,31.2136,-82.354,Super 8 by Wyndham Waycross GA
493,Mineros,BO,67.91,clear sky,-17.1167,-63.2333,Colpacaranda Eco Resort
494,High Prairie,CA,51.96,overcast clouds,55.4334,-116.4858,Royal Star Motor Inn
495,Russell,US,74.8,clear sky,32.3502,-85.1999,Macs
497,Brewster,US,58.19,clear sky,41.3973,-73.6171,Heidi's Inn
498,Padang,ID,73.45,overcast clouds,-0.9492,100.3543,Mercure Padang
500,Humen,CN,73.06,clear sky,22.819000000000003,113.6731,豪门大饭店
501,Shingu,JP,66.11,overcast clouds,33.7333,135.9833,Shingu UI Hotel
504,Flores,GT,72.97,overcast clouds,16.9226,-89.8994,Quinta Maya Hotel
505,Alice Springs,AU,78.35,overcast clouds,-23.7,133.8833,Desert Palms Alice Springs
507,Boueni,YT,75.18,clear sky,-12.9025,45.0761,The feet in water
508,Bosobolo,CD,69.01,overcast clouds,4.1833,19.9,
509,Havelock,US,67.98,scattered clouds,34.8791,-76.9013,Sherwood Motel
510,Arroyo,ES,61.59,scattered clouds,41.6096,-4.7969,Hotel El Jardín de la Abadía
511,Bongandanga,CD,69.46,light rain,1.5,21.05,
513,Resistencia,AR,61.11,clear sky,-27.4606,-58.9839,Niyat Urban Hotel
515,Moron,AR,60.98,broken clouds,-34.6534,-58.6198,Hotel Morón
517,Estelle,US,78.01,clear sky,29.8458,-90.1067,Ohio
520,Novo Aripuana,BR,79.07,light rain,-5.1206,-60.3797,Hotel Ezequiel
524,Barabai,ID,73.89,overcast clouds,-2.5833,115.3833,HOTEL BOURAQ INDAH PERMAI
525,Urupes,BR,72.73,overcast clouds,-21.2017,-49.29,Romera
526,Buchanan,LR,77.32,light rain,5.8808,-10.0467,Kamaneahn Hotel Inc
527,Tura,IN,70.72,broken clouds,25.5198,90.2201,Hotel RIKMAN Continental
529,Cedar City,US,70.77,clear sky,37.6775,-113.0619,Hampton Inn Cedar City
534,Mucuri,BR,75.9,few clouds,-18.0864,-39.5508,La Bodeguita Pousada
535,Kropotkin,RU,52.38,clear sky,45.4375,40.5756,Hotel Europe Kropotkin
536,Hun,LY,72.52,clear sky,29.1268,15.9477,Alrwasi Hotel
538,Ketchikan,US,54.07,broken clouds,55.3422,-131.6461,Snow's Cove Lodge
540,Karoi,ZW,65.43,clear sky,-16.8099,29.6925,Chikangwe Guest houses
542,Hutchinson,US,73.35,overcast clouds,38.0608,-97.9298,Hampton Inn Hutchinson
545,Matara,LK,76.12,overcast clouds,5.9485,80.5353,Amaloh Boutique Resort
547,Marsa Matruh,EG,70.56,clear sky,31.3525,27.2453,Beau Site
548,Pijijiapan,MX,74.44,overcast clouds,15.7011,-93.23,Hotel Rosita
549,Rafai,CF,68.67,light rain,4.95,23.9167,
554,Dalbandin,PK,62.94,clear sky,28.8947,64.4101,Sanjrani House
555,Rawson,AR,61.84,few clouds,-43.3002,-65.1023,Hosteria Sampedro
556,Sativasur,CO,51.24,broken clouds,6.0936,-72.7122,Huertellano
559,Horta,PT,69.03,scattered clouds,38.5333,-28.6333,Hotel do Canal | Horta - Faial
560,Yazd,IR,67.35,clear sky,31.8972,54.3675,Mozaffar Traditional Hotel
561,Forest Lake,US,67.26,clear sky,45.2789,-92.9852,"Country Inn & Suites by Radisson, Forest Lake, MN"
563,Santo Antonio Do Ica,BR,76.82,broken clouds,-3.1022,-67.9397,HOTEL AMAZON WAY
565,Niksic,ME,55.67,overcast clouds,42.7731,18.9445,Hotel Trebjesa
566,Kitgum,UG,66.2,light rain,3.2783,32.8867,Jaflo Gardens Hotel
567,Warrington,GB,50.32,overcast clouds,53.3925,-2.5802,Villaggio Hotel
568,Phalaborwa,ZA,69.08,clear sky,-23.943,31.1411,Bothabelo Bed and Breakfast
569,Bozeman,US,72.82,clear sky,45.6796,-111.0386,Homewood Suites by Hilton Bozeman
570,Miri,MY,75.34,scattered clouds,4.4148,114.0089,"Mega Hotel, Miri"
572,Marabba,SD,78.31,broken clouds,12.35,32.1833,
575,Chilca,PE,60.73,broken clouds,-12.5211,-76.7372,Playa Punta Yaya - Las Salinas
576,Shenjiamen,CN,61.07,broken clouds,29.9576,122.29799999999999,Jinjiang Inn Zhoushan Putuo Shenjiamen
577,Baherden,TM,64.47,clear sky,38.4362,57.4316,
579,Assiniboia,CA,71.42,few clouds,49.6334,-105.9845,Canalta Hotel Assiniboia
580,Bantou,CN,60.24,clear sky,26.2151,117.4893,
582,Faro,PT,67.17,few clouds,37.0194,-7.9322,Hotel Faro & Beach Club
584,Quang Ngai,VN,76.12,overcast clouds,15.1167,108.8,Central Hotel
588,Kearney,US,75.11,clear sky,40.6995,-99.0815,"Holiday Inn Kearney, an IHG Hotel"
589,Tolstoy-Yurt,RU,59.32,light intensity shower rain,43.4444,45.7722,
590,Praia Da Vitoria,PT,70.05,few clouds,38.7333,-27.0667,Hotel Branco I
591,Marawi,PH,74.68,overcast clouds,7.9986,124.2928,Derogongan Residence
594,Nemuro,JP,55.87,light rain,43.3236,145.575,Hotel Nemuro Kaiyoutei
596,Pirassununga,BR,69.46,clear sky,-21.9961,-47.4258,Hotel Premium Pirassununga
597,Tezu,IN,71.51,overcast clouds,27.9167,96.1667,Circuit House
598,Tutoia,BR,79.72,broken clouds,-2.7619,-42.2744,Pousada Guará's
599,Gumdag,TM,66.47,scattered clouds,39.2061,54.5906,
603,Kamaishi,JP,62.49,overcast clouds,39.2667,141.8833,Hotel Route Inn Kamaishi
604,Kruisfontein,ZA,64.89,overcast clouds,-34.0033,24.7314,Oyster Bay House Rental
605,High Level,CA,57.31,scattered clouds,58.5169,-117.13600000000001,Days Inn by Wyndham High Level
606,Malanje,AO,67.05,few clouds,-9.5402,16.340999999999998,Hotel Ginga
607,Praya,CV,79.34,broken clouds,14.9215,-23.5087,LT Aparthotel
609,Teguise,ES,66.42,few clouds,29.0605,-13.564,B&B La Casona de Nazaret
614,Lao Cai,VN,65.98,scattered clouds,22.4833,103.95,Legend Hotel
618,Asfi,MA,66.7,overcast clouds,32.2994,-9.2372,Hôtel Abda
619,Middletown,US,65.48,clear sky,39.5151,-84.3983,Center of Hope for Women and Children
620,Soverato,IT,60.75,clear sky,38.685,16.5499,Hotel San Domenico
621,Forbes,AU,68.92,overcast clouds,-33.3833,148.0167,Lake Forbes Motel
623,Tshikapa,CD,70.68,scattered clouds,-6.4167,20.8,Tatem beach
628,Miles City,US,68.52,few clouds,46.4083,-105.8406,FairBridge Inn & Suites Miles City
630,Felanitx,ES,65.95,overcast clouds,39.4696,3.1483,Petit Hotel Hostatgeria Sant Salvador
631,Tupiza,BO,54.57,clear sky,-21.45,-65.7167,Hotel Mitru
632,Rapid City,US,76.3,clear sky,44.0805,-103.23100000000001,"Hotel Alex Johnson Rapid City, Curio Collection by Hilton"
633,Nogales,MX,69.71,overcast clouds,31.3086,-110.9422,Siesta Motel
634,Cuiaba,BR,78.73,scattered clouds,-15.5961,-56.0967,Getúllio Hotel
635,Kramat,ID,77.79,overcast clouds,-8.1311,113.4499,Padepokan HM Arum Sabil
636,Soyo,AO,76.5,clear sky,-6.1349,12.3689,Hospedaria ndozi'ame
639,Inirida,CO,77.16,heavy intensity rain,3.8653,-67.9239,Fuente del Guania Hotel de Lujo
641,Pierre,US,73.27,broken clouds,44.3683,-100.351,Ramkota Hotel
643,Ouadda,CF,65.75,broken clouds,8.0777,22.4007,
644,Fort-Shevchenko,KZ,63.88,scattered clouds,44.5086,50.263000000000005,Oasis hotel Bautino
645,North Platte,US,75.11,clear sky,41.1239,-100.7654,"Holiday Inn Express & Suites North Platte, an IHG Hotel"
647,Champerico,GT,75.74,overcast clouds,14.3,-91.9167,"Hotel y restaurante ""El Diamante"""
648,Amalapuram,IN,75.76,overcast clouds,16.5833,82.0167,swayamprabha service apartments
649,Jiangyou,CN,56.25,overcast clouds,31.7667,104.7167,Shangping Shuyuan Inn
650,Ballina,AU,65.79,overcast clouds,-28.8667,153.5667,Ramada Hotel & Suites by Wyndham Ballina Byron
652,Shetpe,KZ,60.84,scattered clouds,44.1667,52.1167,Нұрберген Абыл
653,Chavakkad,IN,75.9,overcast clouds,10.5333,76.05,Rajah Island
654,Faya,SA,60.91,clear sky,18.3851,42.4509,شيلة نسايم
655,Ormara,PK,78.87,clear sky,25.2088,64.6357,Kenara Colony House for Rent
656,Macomb,US,71.78,clear sky,40.4592,-90.6718,Hampton Inn Macomb
657,Milledgeville,US,66.69,clear sky,33.0801,-83.2321,Hampton Inn Milledgeville
658,Praia,CV,79.34,broken clouds,14.9215,-23.5087,LT Aparthotel
659,Gimli,CA,60.82,broken clouds,50.6336,-96.9907,Lakeview Gimli Resort
660,Santa Elena,EC,67.55,overcast clouds,-2.2333,-80.85,HOTEL CISNE II
661,Rodgau,DE,59.36,overcast clouds,50.0263,8.8859,Hotel Restaurant Wolfschlucht Eventlocation Rodgau - Frankfurt
662,Batemans Bay,AU,58.1,broken clouds,-35.7167,150.1833,Batemans Bay Marina Resort
664,Ankazoabo,MG,70.21,clear sky,-22.2833,44.5167,ENCEIN BUREAU CISCO
666,Katsuura,JP,71.62,overcast clouds,35.1333,140.3,Katsuura Hotel Mikazuki
667,Dicabisagan,PH,77.81,heavy intensity rain,17.0818,122.4157,Nancy Montanes Bernardo
668,Tianpeng,CN,55.87,overcast clouds,30.9866,103.9393,Shuangliu Love Home Business Hotel
669,Balikpapan,ID,76.19,light rain,-1.2675,116.8289,Swiss-Belhotel Balikpapan
670,Maragogi,BR,77.68,overcast clouds,-9.0122,-35.2225,Salinas do Maragogi All Inclusive Resort
671,Qui Nhon,VN,78.78,overcast clouds,13.7667,109.2333,Seagull Hotel
672,Athabasca,CA,52.21,overcast clouds,54.7169,-113.2854,Athabasca Lodge Motel
673,Rayachoti,IN,71.82,overcast clouds,14.05,78.75,Swetha lodge
675,Ubatuba,BR,70.72,overcast clouds,-23.4339,-45.0711,Hotel Coquille
676,Cap Malheureux,MU,69.48,clear sky,-19.9842,57.6142,Pereybere Hotel & Spa
677,Laem Sing,TH,78.06,overcast clouds,12.4816,102.0738,Laem Sing Whitehouse Resort
679,Qiongshan,CN,75.18,clear sky,20.0058,110.3542,Sun City Restaurant
680,Hamada,JP,59.72,overcast clouds,34.8833,132.0833,Shimane Hamada Washington Hotel Plaza
681,Da Nang,VN,78.78,broken clouds,16.0678,108.2208,Grand Mercure Danang
682,Pueblo,US,75.96,clear sky,38.2545,-104.6091,Courtyard by Marriott Pueblo Downtown
683,Saint Anthony,US,66.88,clear sky,45.0205,-93.21799999999999,"Holiday Inn Express Roseville-St. Paul, an IHG Hotel"
684,San Jose Iturbide,MX,65.59,overcast clouds,21.0,-100.3833,Los Arcos
686,Merrill,US,55.89,few clouds,45.1805,-89.6835,Prairie Motel
687,Tuatapere,NZ,51.33,overcast clouds,-46.1333,167.6833,Ron and Tony's Bed & Breakfast
688,Asyut,EG,71.69,clear sky,27.180999999999997,31.1837,فندق ميس إيجيبت Miss Egypt Hotel
689,Tiznit,MA,62.58,clear sky,29.5833,-9.5,
690,Raga,SS,68.94,broken clouds,8.4596,25.678,
691,Sevilla,ES,70.0,clear sky,37.3824,-5.9761,Hotel Sevilla Center
693,Kathmandu,NP,62.82,broken clouds,27.7167,85.3167,Hotel Shanker Kathmandu
